[
  {
    "name": "MENSA_ARCISSTR",
    "long_name": "Mensa Arcisstra\u00dfe",
    "site": {
      "address": "Arcisstra\u00dfe 17, M\u00fcnchen",
      "latitude": 48.14742,
      "longitude": 11.56722
    },
    "url_id": 421
  },
  {
    "name": "MENSA_GARCHING",
    "long_name": "Mensa Garching",
    "site": {
      "address": "Boltzmannstra\u00dfe 19, Garching",
      "latitude": 48.268132,
      "longitude": 11.672263
    },
    "url_id": 422
  },
  {
    "name": "MENSA_LEOPOLDSTR",
    "long_name": "Mensa Leopoldstra\u00dfe",
    "site": {
      "address": "Leopoldstra\u00dfe 13a, M\u00fcnchen",
      "latitude": 48.156311,
      "longitude": 11.582446
    },
    "url_id": 411
  },
  {
    "name": "MENSA_LOTHSTR",
    "long_name": "Mensa Lothstra\u00dfe",
    "site": {
      "address": "Lothstra\u00dfe 13d, M\u00fcnchen",
      "latitude": 48.153989,
      "longitude": 11.552424
    },
    "url_id": 431
  },
  {
    "name": "MENSA_MARTINSRIED",
    "long_name": "Mensa Martinsried",
    "site": {
      "address": "Gro\u00dfhaderner Stra\u00dfe 44, Plategg",
      "latitude": 48.109824,
      "longitude": 11.460006
    },
    "url_id": 412
  },
  {
    "name": "MENSA_PASING",
    "long_name": "Mensa Pasing",
    "site": {
      "address": "Am Stadtpark 20, M\u00fcnchen",
      "latitude": 48.141568,
      "longitude": 11.451119
    },
    "url_id": 432
  },
  {
    "name": "MENSA_WEIHENSTEPHAN",
    "long_name": "Mensa Weihenstephan",
    "site": {
      "address": "Maximus-von-Imhof-Forum 5, Freising",
      "latitude": 48.39959,
      "longitude": 11.723147
    },
    "url_id": 423
  },
  {
    "name": "STUBISTRO_ARCISSTR",
    "long_name": "StuBistro Arcisstra\u00dfe",
    "site": {
      "address": "Leopoldstra\u00dfe 13A, M\u00fcnchen",
      "latitude": 48.156486,
      "longitude": 11.581872
    },
    "url_id": 450
  },
  {
    "name": "STUBISTRO_GOETHESTR",
    "long_name": "StuBistro Goethestra\u00dfe",
    "site": {
      "address": "Goethestra\u00dfe 70, M\u00fcnchen",
      "latitude": 48.131396,
      "longitude": 11.558264
    },
    "url_id": 418
  },
  {
    "name": "STUBISTRO_GROSSHADERN",
    "long_name": "StuBistro Gro\u00dfhadern",
    "site": {
      "address": "Butenandtstra\u00dfe 13, Geb\u00e4ude F, M\u00fcnchen",
      "latitude": 48.11363,
      "longitude": 11.46503
    },
    "url_id": 414
  },
  {
    "name": "STUBISTRO_ROSENHEIM",
    "long_name": "StuBistro Rosenheim",
    "site": {
      "address": "Hochschulstra\u00dfe 1, Rosenheim",
      "latitude": 47.867344,
      "longitude": 12.107559
    },
    "url_id": 441
  },
  {
    "name": "STUBISTRO_SCHELLINGSTR",
    "long_name": "StuBistro Schellingstra\u00dfe",
    "site": {
      "address": "Schellingstra\u00dfe 3, M\u00fcnchen",
      "latitude": 48.148893,
      "longitude": 11.579027
    },
    "url_id": 416
  },
  {
    "name": "STUCAFE_ADALBERTSTR",
    "long_name": "StuCaf\u00e9 Adalbertstra\u00dfe",
    "site": {
      "address": "Adalbertstra\u00dfe 5, M\u00fcnchen",
      "latitude": 48.151507,
      "longitude": 11.581033
    },
    "url_id": 512
  },
  {
    "name": "STUCAFE_AKADEMIE_WEIHENSTEPHAN",
    "long_name": "StuCaf\u00e9 Akademie Weihenstephan",
    "site": {
      "address": "Alte Akademie 1, Freising",
      "latitude": 48.3948,
      "longitude": 11.729338
    },
    "url_id": 526
  },
  {
    "name": "STUCAFE_BOLTZMANNSTR",
    "long_name": "StuCaf\u00e9 Boltzmannstra\u00dfe",
    "site": {
      "address": "Boltzmannstra\u00dfe 15, Garching",
      "latitude": 48.265768,
      "longitude": 11.667593
    },
    "url_id": 527
  },
  {
    "name": "STUCAFE_GARCHING",
    "long_name": "StuCaf\u00e9 in der Mensa Garching",
    "site": {
      "address": "Boltzmannstra\u00dfe 19, Garching",
      "latitude": 48.268268,
      "longitude": 11.6717
    },
    "url_id": 524
  },
  {
    "name": "STUCAFE_KARLSTR",
    "long_name": "StuCaf\u00e9 Karlstra\u00dfe",
    "site": {
      "address": "Karlstra\u00dfe 6, M\u00fcnchen",
      "latitude": 48.142759,
      "longitude": 11.568432
    },
    "url_id": 532
  },
  {
    "name": "STUCAFE_PASING",
    "long_name": "StuCaf\u00e9 Pasing",
    "site": {
      "address": "Am Stadtpark 20, M\u00fcnchen",
      "latitude": 48.141568,
      "longitude": 11.451119
    },
    "url_id": 534
  },
  {
    "name": "IPP_BISTRO",
    "long_name": "IPP Bistro Garching",
    "site": {
      "address": "Boltzmannstra\u00dfe 2, 85748 Garching",
      "latitude": 48.262371,
      "longitude": 11.672702
    },
    "url_id": null
  },
  {
    "name": "FMI_BISTRO",
    "long_name": "FMI Bistro Garching",
    "site": {
      "address": "Boltzmannstra\u00dfe 3, 85748 Garching",
      "latitude": 48.262408,
      "longitude": 11.668028
    },
    "url_id": null
  },
  {
    "name": "MEDIZINER_MENSA",
    "long_name": "Mediziner Mensa",
    "site": {
      "address": "Ismaninger Stra\u00dfe 22, 81675 M\u00fcnchen",
      "latitude": 48.136569,
      "longitude": 11.5993226
    },
    "url_id": null
  }
]
